[{"beds":1,"baths":0.0,"price":4990,"address":"400 Prospect St, La Jolla, CA","street":"400 Prospect St   # 208","state":"CA","city":"La Jolla","zipcode":92037,"lat":32.841976,"lon":-117.27955},{"beds":2,"baths":0.0,"price":6616,"address":"400 Prospect St, La Jolla, CA","street":"400 Prospect St   # 208","state":"CA","city":"La Jolla","zipcode":92037,"lat":32.841976,"lon":-117.27955},{"beds":1,"baths":0.0,"price":3150,"address":"8506 Villa La Jolla Dr, La Jolla, CA","street":"8506 Villa La Jolla Dr   # 346","state":"CA","city":"La Jolla","zipcode":92037,"lat":32.86568,"lon":-117.235725},{"beds":2,"baths":0.0,"price":3980,"address":"8506 Villa La Jolla Dr, La Jolla, CA","street":"8506 Villa La Jolla Dr   # 346","state":"CA","city":"La Jolla","zipcode":92037,"lat":32.86568,"lon":-117.235725},{"beds":1,"baths":1.0,"price":1950,"address":"Casa Linda, 7623 Eads Ave, La Jolla, CA 92037","street":"7623 Eads Ave #41DDE7B81","state":"CA","city":"La Jolla","zipcode":92037,"lat":32.842457,"lon":-117.27549},{"beds":1,"baths":0.0,"price":2075,"address":"3172 Via Alicante, La Jolla, CA","street":"3172 Via Alicante Unit C","state":"CA","city":"La Jolla","zipcode":92037,"lat":32.861904,"lon":-117.23384},{"beds":5,"baths":4.0,"price":9850,"address":"8058 Gilman Ct, La Jolla, CA 92037","street":"8058 Gilman Ct","state":"CA","city":"La Jolla","zipcode":92037,"lat":32.851982,"lon":-117.237274},{"beds":3,"baths":2.5,"price":6175,"address":"376 Playa Del Norte, La Jolla, CA 92037","street":"376 Playa Del Norte","state":"CA","city":"La Jolla","zipcode":92037,"lat":32.83004,"lon":-117.27778},{"beds":2,"baths":1.5,"price":3195,"address":"8763 Gilman Dr UNIT C, La Jolla, CA 92037","street":"8763 Gilman Dr UNIT C","state":"CA","city":"La Jolla","zipcode":92037,"lat":32.867527,"lon":-117.23662},{"beds":2,"baths":0.0,"price":6200,"address":"2406 Torrey Pines Rd, La Jolla, CA","street":"2406 Torrey Pines Rd   # 148-1","state":"CA","city":"La Jolla","zipcode":92037,"lat":32.851173,"lon":-117.25048},{"beds":3,"baths":0.0,"price":6300,"address":"2406 Torrey Pines Rd, La Jolla, CA","street":"2406 Torrey Pines Rd   # 148-1","state":"CA","city":"La Jolla","zipcode":92037,"lat":32.851173,"lon":-117.25048},{"beds":2,"baths":0.0,"price":5500,"address":"939 Coast Blvd, La Jolla, CA","street":"939 Coast Blvd Unit 14C","state":"CA","city":"La Jolla","zipcode":92037,"lat":32.847897,"lon":-117.2762},{"beds":3,"baths":2.5,"price":7000,"address":"6057 Meadowpointe Row, La Jolla, CA 92037","street":"6057 Meadowpointe Row","state":"CA","city":"La Jolla","zipcode":92037,"lat":32.830765,"lon":-117.24},{"beds":2,"baths":2.5,"price":4100,"address":"8639 Via Mallorca UNIT F, La Jolla, CA 92037","street":"8639 Via Mallorca UNIT F","state":"CA","city":"La Jolla","zipcode":92037,"lat":32.862335,"lon":-117.23133},{"beds":5,"baths":4.0,"price":9800,"address":"7940 La Jolla Shores Dr, La Jolla, CA 92037","street":"7940 La Jolla Shores Dr","state":"CA","city":"La Jolla","zipcode":92037,"lat":32.851246,"lon":-117.25471},{"beds":4,"baths":3.0,"price":6995,"address":"8931 Caminito Fresco, La Jolla, CA 92037","street":"8931 Caminito Fresco","state":"CA","city":"La Jolla","zipcode":92037,"lat":32.86966,"lon":-117.23882},{"beds":3,"baths":2.5,"price":6995,"address":"635 Nautilus St, La Jolla, CA 92037","street":"635 Nautilus St","state":"CA","city":"La Jolla","zipcode":92037,"lat":32.83193,"lon":-117.27467},{"beds":4,"baths":2.0,"price":6995,"address":"(undisclosed Address), La Jolla, CA 92037","street":"(undisclosed Address)","state":"CA","city":"La Jolla","zipcode":92037,"lat":null,"lon":null},{"beds":3,"baths":2.5,"price":7050,"address":"5656 Caminito Danzarin, La Jolla, CA 92037","street":"5656 Caminito Danzarin","state":"CA","city":"La Jolla","zipcode":92037,"lat":32.81881,"lon":-117.25142},{"beds":3,"baths":0.0,"price":5975,"address":"7560 Eads Ave, La Jolla, CA","street":"7560 Eads Ave  ","state":"CA","city":"La Jolla","zipcode":92037,"lat":32.841022,"lon":-117.275635},{"beds":3,"baths":2.0,"price":7500,"address":"6218 Calle Veracruz, La Jolla, CA 92037","street":"6218 Calle Veracruz","state":"CA","city":"La Jolla","zipcode":92037,"lat":32.82774,"lon":-117.25025},{"beds":3,"baths":2.0,"price":9988,"address":"1617 Calle Alta, La Jolla, CA 92037","street":"1617 Calle Alta","state":"CA","city":"La Jolla","zipcode":92037,"lat":32.817284,"lon":-117.24477},{"beds":1,"baths":0.0,"price":2900,"address":"8666 Via Mallorca, La Jolla, CA","street":"8666 Via Mallorca Apt J","state":"CA","city":"La Jolla","zipcode":92037,"lat":32.863358,"lon":-117.23383},{"beds":2,"baths":0.0,"price":3700,"address":"8666 Via Mallorca, La Jolla, CA","street":"8666 Via Mallorca Apt J","state":"CA","city":"La Jolla","zipcode":92037,"lat":32.863358,"lon":-117.23383},{"beds":2,"baths":2.0,"price":3395,"address":"7601 Eads Avenue, 7601 Eads Ave APT 2, La Jolla, CA 92037","street":"7601 Eads Ave APT 2","state":"CA","city":"La Jolla","zipcode":92037,"lat":32.8422,"lon":-117.27526},{"beds":1,"baths":1.5,"price":3600,"address":"5431 La Jolla Blvd #A, La Jolla, CA 92037","street":"5431 La Jolla Blvd #A","state":"CA","city":"La Jolla","zipcode":92037,"lat":32.8118,"lon":-117.267},{"beds":3,"baths":3.0,"price":6200,"address":"5805 Caminito Del Estio, La Jolla, CA 92037","street":"5805 Caminito Del Estio","state":"CA","city":"La Jolla","zipcode":92037,"lat":32.82145,"lon":-117.25058},{"beds":4,"baths":3.0,"price":10750,"address":"6561 Avenida Wilfredo, La Jolla, CA 92037","street":"6561 Avenida Wilfredo","state":"CA","city":"La Jolla","zipcode":92037,"lat":32.829468,"lon":-117.270805},{"beds":4,"baths":3.5,"price":18900,"address":"7274 Via Capri, La Jolla, CA 92037","street":"7274 Via Capri","state":"CA","city":"La Jolla","zipcode":92037,"lat":32.841896,"lon":-117.2525},{"beds":2,"baths":2.0,"price":6500,"address":"1238 Agate St, San Diego, CA 92109","street":"1238 Agate St","state":"CA","city":"San Diego","zipcode":92109,"lat":32.81169,"lon":-117.251335},{"beds":3,"baths":3.5,"price":12000,"address":"1205 Coast Blvd UNIT A, La Jolla, CA 92037","street":"1205 Coast Blvd UNIT A","state":"CA","city":"La Jolla","zipcode":92037,"lat":32.84962,"lon":-117.27204},{"beds":3,"baths":2.0,"price":7295,"address":"846 Forward St, La Jolla, CA 92037","street":"846 Forward St","state":"CA","city":"La Jolla","zipcode":92037,"lat":32.815372,"lon":-117.26353},{"beds":3,"baths":2.5,"price":9000,"address":"7841 Prospect Pl, La Jolla, CA 92037","street":"7841 Prospect Pl","state":"CA","city":"La Jolla","zipcode":92037,"lat":32.847946,"lon":-117.26771},{"beds":4,"baths":3.0,"price":8999,"address":"5622 Taft Ave, La Jolla, CA 92037","street":"5622 Taft Ave","state":"CA","city":"La Jolla","zipcode":92037,"lat":32.81529,"lon":-117.26533},{"beds":4,"baths":3.0,"price":8500,"address":"1540 La Jolla Rancho Rd, La Jolla, CA 92037","street":"1540 La Jolla Rancho Rd","state":"CA","city":"La Jolla","zipcode":92037,"lat":32.825943,"lon":-117.25812},{"beds":3,"baths":2.5,"price":8500,"address":"1389 Caminito Batea, La Jolla, CA 92037","street":"1389 Caminito Batea","state":"CA","city":"La Jolla","zipcode":92037,"lat":32.81745,"lon":-117.25003},{"beds":4,"baths":4.0,"price":13000,"address":"918 Sandpiper Pl, La Jolla, CA 92037","street":"918 Sandpiper Pl","state":"CA","city":"La Jolla","zipcode":92037,"lat":32.81733,"lon":-117.26334},{"beds":3,"baths":4.0,"price":8500,"address":"1311 Caminito Floreo, La Jolla, CA 92037","street":"1311 Caminito Floreo","state":"CA","city":"La Jolla","zipcode":92037,"lat":32.81509,"lon":-117.25187},{"beds":3,"baths":2.0,"price":5700,"address":"Mount La Jolla, 2205 Caminito Preciosa Sur, La Jolla, CA 92037","street":"2205 Caminito Preciosa Sur","state":"CA","city":"La Jolla","zipcode":92037,"lat":32.81866,"lon":-117.234184},{"beds":2,"baths":2.0,"price":6500,"address":"8017 El Paseo Grande, La Jolla, CA 92037","street":"8017 El Paseo Grande","state":"CA","city":"La Jolla","zipcode":92037,"lat":32.85287,"lon":-117.25544},{"beds":5,"baths":3.0,"price":18000,"address":"5432 Candlelight Dr, La Jolla, CA 92037","street":"5432 Candlelight Dr","state":"CA","city":"La Jolla","zipcode":92037,"lat":32.81356,"lon":-117.25901},{"beds":4,"baths":3.5,"price":9300,"address":"1253 Torrey Pines Rd, La Jolla, CA 92037","street":"1253 Torrey Pines Rd","state":"CA","city":"La Jolla","zipcode":92037,"lat":32.844196,"lon":-117.27009},{"beds":4,"baths":4.5,"price":15750,"address":"7225 Encelia Dr, La Jolla, CA 92037","street":"7225 Encelia Dr","state":"CA","city":"La Jolla","zipcode":92037,"lat":32.84013,"lon":-117.25739},{"beds":1,"baths":1.0,"price":3890,"address":"8356 Via Sonoma UNIT B, La Jolla, CA 92037","street":"8356 Via Sonoma UNIT B","state":"CA","city":"La Jolla","zipcode":92037,"lat":32.857582,"lon":-117.23244},{"beds":2,"baths":2.0,"price":4950,"address":"525 Marine St UNIT 11, La Jolla, CA 92037","street":"525 Marine St UNIT 11","state":"CA","city":"La Jolla","zipcode":92037,"lat":32.83728,"lon":-117.27774},{"beds":3,"baths":3.5,"price":24995,"address":"5802 Corral Way, La Jolla, CA 92037","street":"5802 Corral Way","state":"CA","city":"La Jolla","zipcode":92037,"lat":32.81987,"lon":-117.260765},{"beds":6,"baths":5.0,"price":29500,"address":"2469 Avenida De La Playa, La Jolla, CA 92037","street":"2469 Avenida De La Playa","state":"CA","city":"La Jolla","zipcode":92037,"lat":32.85339,"lon":-117.25072},{"beds":3,"baths":3.0,"price":9500,"address":"5448 Caminito Bayo, La Jolla, CA 92037","street":"5448 Caminito Bayo","state":"CA","city":"La Jolla","zipcode":92037,"lat":32.814903,"lon":-117.25276},{"beds":0,"baths":1.0,"price":1650,"address":"Studio, $1,650, 1129 Torrey Pines Rd APT 1, La Jolla, CA 92037","street":"1129 Torrey Pines Rd APT 1","state":"CA","city":"La Jolla","zipcode":92037,"lat":32.843163,"lon":-117.27118},{"beds":6,"baths":5.0,"price":15000,"address":"2610 Inyaha Ln, La Jolla, CA 92037","street":"2610 Inyaha Ln","state":"CA","city":"La Jolla","zipcode":92037,"lat":32.8744,"lon":-117.24639},{"beds":1,"baths":1.0,"price":6500,"address":"7648 Ivanhoe Ave E, La Jolla, CA 92037","street":"7648 Ivanhoe Ave E","state":"CA","city":"La Jolla","zipcode":92037,"lat":32.84439,"lon":-117.269684},{"beds":4,"baths":3.5,"price":32000,"address":"887 La Jolla Rancho Rd, La Jolla, CA 92037","street":"887 La Jolla Rancho Rd","state":"CA","city":"La Jolla","zipcode":92037,"lat":32.82013,"lon":-117.26604},{"beds":6,"baths":5.5,"price":55000,"address":"1419 Inspiration Dr, La Jolla, CA 92037","street":"1419 Inspiration Dr","state":"CA","city":"La Jolla","zipcode":92037,"lat":32.82519,"lon":-117.26184},{"beds":4,"baths":3.5,"price":20000,"address":"1402 Rodeo Dr, La Jolla, CA 92037","street":"1402 Rodeo Dr","state":"CA","city":"La Jolla","zipcode":92037,"lat":32.824802,"lon":-117.261},{"beds":1,"baths":0.0,"price":3900,"address":"8537 Villa La Jolla Dr, La Jolla, CA","street":"8537 Villa La Jolla Dr Apt D","state":"CA","city":"La Jolla","zipcode":92037,"lat":32.862747,"lon":-117.234886},{"beds":2,"baths":0.0,"price":3100,"address":"8537 Villa La Jolla Dr, La Jolla, CA","street":"8537 Villa La Jolla Dr Apt D","state":"CA","city":"La Jolla","zipcode":92037,"lat":32.862747,"lon":-117.234886},{"beds":3,"baths":3.0,"price":5200,"address":"8255 Caminito Modena, La Jolla, CA 92037","street":"8255 Caminito Modena","state":"CA","city":"La Jolla","zipcode":92037,"lat":32.854923,"lon":-117.23281},{"beds":1,"baths":0.0,"price":2600,"address":"8430 Via Mallorca, La Jolla, CA","street":"8430 Via Mallorca Unit 118","state":"CA","city":"La Jolla","zipcode":92037,"lat":32.860573,"lon":-117.23478},{"beds":2,"baths":0.0,"price":3200,"address":"8430 Via Mallorca, La Jolla, CA","street":"8430 Via Mallorca Unit 118","state":"CA","city":"La Jolla","zipcode":92037,"lat":32.860573,"lon":-117.23478},{"beds":2,"baths":2.0,"price":4200,"address":"7550 Eads Ave UNIT 103, La Jolla, CA 92037","street":"7550 Eads Ave UNIT 103","state":"CA","city":"La Jolla","zipcode":92037,"lat":32.840626,"lon":-117.275505},{"beds":4,"baths":4.0,"price":15000,"address":"2094 Caminito Capa, La Jolla, CA 92037","street":"2094 Caminito Capa","state":"CA","city":"La Jolla","zipcode":92037,"lat":32.83797,"lon":-117.250984},{"beds":0,"baths":1.0,"price":6000,"address":"5490 La Jolla Blvd #F213, La Jolla, CA 92037","street":"5490 La Jolla Blvd #F213","state":"CA","city":"La Jolla","zipcode":92037,"lat":32.811855,"lon":-117.2683},{"beds":3,"baths":3.0,"price":7500,"address":"7209 Draper Ave, La Jolla, CA 92037","street":"7209 Draper Ave","state":"CA","city":"La Jolla","zipcode":92037,"lat":32.83581,"lon":-117.27512},{"beds":3,"baths":2.0,"price":15000,"address":"5366 Chelsea St, La Jolla, CA 92037","street":"5366 Chelsea St","state":"CA","city":"La Jolla","zipcode":92037,"lat":32.810024,"lon":-117.26708},{"beds":1,"baths":1.0,"price":3095,"address":"8539 Via Mallorca, La Jolla, CA 92037","street":"8539 Via Mallorca","state":"CA","city":"La Jolla","zipcode":92037,"lat":32.861256,"lon":-117.23192},{"beds":3,"baths":3.0,"price":5450,"address":"919 Agate St UNIT 2, San Diego, CA 92109","street":"919 Agate St UNIT 2","state":"CA","city":"San Diego","zipcode":92109,"lat":32.809757,"lon":-117.25741},{"beds":0,"baths":1.0,"price":2150,"address":"739 1\/2 Agate St, San Diego, CA 92109","street":"739 1\/2 Agate St","state":"CA","city":"San Diego","zipcode":92109,"lat":32.81003,"lon":-117.25771},{"beds":1,"baths":1.0,"price":2850,"address":"5663 1\/2 Desert View Dr, La Jolla, CA 92037","street":"5663 1\/2 Desert View Dr","state":"CA","city":"La Jolla","zipcode":92037,"lat":32.82466,"lon":-117.23414},{"beds":1,"baths":0.0,"price":3450,"address":"6455 La Jolla Blvd, La Jolla, CA","street":"6455 La Jolla Blvd Unit 238","state":"CA","city":"La Jolla","zipcode":92037,"lat":32.825966,"lon":-117.27615},{"beds":2,"baths":0.0,"price":3600,"address":"6455 La Jolla Blvd, La Jolla, CA","street":"6455 La Jolla Blvd Unit 238","state":"CA","city":"La Jolla","zipcode":92037,"lat":32.825966,"lon":-117.27615},{"beds":2,"baths":2.0,"price":6500,"address":"1039 Coast Blvd S, La Jolla, CA 92037","street":"1039 Coast Blvd S","state":"CA","city":"La Jolla","zipcode":92037,"lat":32.848305,"lon":-117.2747},{"beds":2,"baths":0.0,"price":5500,"address":"1040 S Coast Blvd, La Jolla, CA","street":"1040 S  Coast Blvd ","state":"CA","city":"La Jolla","zipcode":92037,"lat":32.848625,"lon":-117.27491},{"beds":3,"baths":4.0,"price":8900,"address":"9709 Claiborne Sq, La Jolla, CA 92037","street":"9709 Claiborne Sq","state":"CA","city":"La Jolla","zipcode":92037,"lat":32.88206,"lon":-117.24496},{"beds":3,"baths":3.0,"price":8500,"address":"1327 Torrey Pines Rd, La Jolla, CA 92037","street":"1327 Torrey Pines Rd","state":"CA","city":"La Jolla","zipcode":92037,"lat":32.84504,"lon":-117.26918},{"beds":3,"baths":3.0,"price":8000,"address":"8405 Paseo Del Ocaso, La Jolla, CA 92037","street":"8405 Paseo Del Ocaso","state":"CA","city":"La Jolla","zipcode":92037,"lat":32.85934,"lon":-117.254196},{"beds":4,"baths":3.0,"price":12900,"address":"8330 Prestwick Dr, La Jolla, CA 92037","street":"8330 Prestwick Dr","state":"CA","city":"La Jolla","zipcode":92037,"lat":32.857777,"lon":-117.24791},{"beds":2,"baths":1.0,"price":4000,"address":"8460 Via Sonoma UNIT 44, La Jolla, CA 92037","street":"8460 Via Sonoma UNIT 44","state":"CA","city":"La Jolla","zipcode":92037,"lat":32.859734,"lon":-117.2312},{"beds":2,"baths":0.0,"price":8500,"address":"5430 La Jolla Blvd, La Jolla, CA","street":"5430 La Jolla Blvd Unit C202","state":"CA","city":"La Jolla","zipcode":92037,"lat":32.811268,"lon":-117.26754},{"beds":3,"baths":0.0,"price":10000,"address":"5430 La Jolla Blvd, La Jolla, CA","street":"5430 La Jolla Blvd Unit C202","state":"CA","city":"La Jolla","zipcode":92037,"lat":32.811268,"lon":-117.26754},{"beds":3,"baths":2.0,"price":6000,"address":"8888 Nottingham Pl, La Jolla, CA 92037","street":"8888 Nottingham Pl","state":"CA","city":"La Jolla","zipcode":92037,"lat":32.86783,"lon":-117.24096},{"beds":2,"baths":2.5,"price":5995,"address":"1225 Silverado St, La Jolla, CA 92037","street":"1225 Silverado St","state":"CA","city":"La Jolla","zipcode":92037,"lat":32.846584,"lon":-117.27084},{"beds":3,"baths":2.5,"price":8995,"address":"2537 Carriagedale Row, La Jolla, CA 92037","street":"2537 Carriagedale Row","state":"CA","city":"La Jolla","zipcode":92037,"lat":32.830936,"lon":-117.23748},{"beds":2,"baths":1.0,"price":5000,"address":"(undisclosed Address), La Jolla, CA 92037","street":"(undisclosed Address)","state":"CA","city":"La Jolla","zipcode":92037,"lat":null,"lon":null},{"beds":3,"baths":2.0,"price":8900,"address":"7951 Avenida Alamar, La Jolla, CA 92037","street":"7951 Avenida Alamar","state":"CA","city":"La Jolla","zipcode":92037,"lat":32.851387,"lon":-117.257835},{"beds":4,"baths":3.0,"price":9750,"address":"5441 Waverly Ave, La Jolla, CA 92037","street":"5441 Waverly Ave","state":"CA","city":"La Jolla","zipcode":92037,"lat":32.81267,"lon":-117.26391},{"beds":2,"baths":2.0,"price":4950,"address":"1056 Pearl St UNIT 7, La Jolla, CA 92037","street":"1056 Pearl St UNIT 7","state":"CA","city":"La Jolla","zipcode":92037,"lat":32.84108,"lon":-117.27178},{"beds":3,"baths":2.5,"price":5500,"address":"7597 Eads Ave, La Jolla, CA 92037","street":"7597 Eads Ave","state":"CA","city":"La Jolla","zipcode":92037,"lat":32.84196,"lon":-117.2752},{"beds":6,"baths":8.5,"price":35000,"address":"(undisclosed Address), La Jolla, CA 92037","street":"(undisclosed Address)","state":"CA","city":"La Jolla","zipcode":92037,"lat":null,"lon":null},{"beds":1,"baths":0.0,"price":3165,"address":"8506 Villa La Jolla Dr, La Jolla, CA","street":"8506 Villa La Jolla Dr   # 265","state":"CA","city":"La Jolla","zipcode":92037,"lat":32.86568,"lon":-117.235725},{"beds":1,"baths":0.0,"price":5340,"address":"400 Prospect St, La Jolla, CA","street":"400 Prospect St   # 208","state":"CA","city":"La Jolla","zipcode":92037,"lat":32.841976,"lon":-117.27955},{"beds":2,"baths":0.0,"price":6220,"address":"400 Prospect St, La Jolla, CA","street":"400 Prospect St   # 208","state":"CA","city":"La Jolla","zipcode":92037,"lat":32.841976,"lon":-117.27955},{"beds":3,"baths":2.0,"price":6200,"address":"5649 Linda Rosa Ave, La Jolla, CA 92037","street":"5649 Linda Rosa Ave","state":"CA","city":"La Jolla","zipcode":92037,"lat":32.81607,"lon":-117.26415},{"beds":3,"baths":3.5,"price":9000,"address":"363 Prospect St, La Jolla, CA 92037","street":"363 Prospect St","state":"CA","city":"La Jolla","zipcode":92037,"lat":32.840973,"lon":-117.27937},{"beds":4,"baths":4.0,"price":8500,"address":"5419 Beaumont Ave, La Jolla, CA 92037","street":"5419 Beaumont Ave","state":"CA","city":"La Jolla","zipcode":92037,"lat":32.81206,"lon":-117.264534},{"beds":2,"baths":1.0,"price":2645,"address":"2 bed, 650 sqft, $2,645, 415 Colima St #4, La Jolla, CA 92037","street":"415 Colima St #4","state":"CA","city":"La Jolla","zipcode":92037,"lat":32.81107,"lon":-117.26596},{"beds":2,"baths":2.0,"price":3999,"address":"7575 Eads Ave, La Jolla, CA 92037","street":"7575 Eads Ave","state":"CA","city":"La Jolla","zipcode":92037,"lat":32.84145,"lon":-117.275024},{"beds":4,"baths":3.0,"price":11000,"address":"6561 Avenida Wilfredo, La Jolla, CA 92037","street":"6561 Avenida Wilfredo","state":"CA","city":"La Jolla","zipcode":92037,"lat":32.829468,"lon":-117.270805},{"beds":2,"baths":0.0,"price":5500,"address":"939 Coast Blvd, La Jolla, CA","street":"939 Coast Blvd Unit 15E","state":"CA","city":"La Jolla","zipcode":92037,"lat":32.847897,"lon":-117.2762},{"beds":3,"baths":2.5,"price":6500,"address":"5710 Caminito Empresa, La Jolla, CA 92037","street":"5710 Caminito Empresa","state":"CA","city":"La Jolla","zipcode":92037,"lat":32.819027,"lon":-117.24933},{"beds":2,"baths":0.0,"price":5495,"address":"525 Marine St, La Jolla, CA","street":"525 Marine St Unit 11","state":"CA","city":"La Jolla","zipcode":92037,"lat":32.83728,"lon":-117.27774},{"beds":3,"baths":0.0,"price":18000,"address":"525 Marine St, La Jolla, CA","street":"525 Marine St Unit 11","state":"CA","city":"La Jolla","zipcode":92037,"lat":32.83728,"lon":-117.27774},{"beds":3,"baths":3.5,"price":7995,"address":"7726 Ivanhoe Ave #1, La Jolla, CA 92037","street":"7726 Ivanhoe Ave #1","state":"CA","city":"La Jolla","zipcode":92037,"lat":32.844654,"lon":-117.271614},{"beds":3,"baths":2.5,"price":5800,"address":"6457 Caminito Sinnecock, La Jolla, CA 92037","street":"6457 Caminito Sinnecock","state":"CA","city":"La Jolla","zipcode":92037,"lat":32.833603,"lon":-117.24524},{"beds":2,"baths":4.0,"price":6995,"address":"2410 Torrey Pines Rd #114, La Jolla, CA 92037","street":"2410 Torrey Pines Rd #114","state":"CA","city":"La Jolla","zipcode":92037,"lat":32.851173,"lon":-117.25048},{"beds":3,"baths":3.5,"price":7835,"address":"440 Pearl St #201, La Jolla, CA 92037","street":"440 Pearl St #201","state":"CA","city":"La Jolla","zipcode":92037,"lat":32.839233,"lon":-117.27909},{"beds":3,"baths":3.0,"price":6995,"address":"7997 Caminito Del Cid, La Jolla, CA 92037","street":"7997 Caminito Del Cid","state":"CA","city":"La Jolla","zipcode":92037,"lat":32.85119,"lon":-117.25138},{"beds":2,"baths":2.0,"price":3500,"address":"3076 Via Alicante UNIT K, La Jolla, CA 92037","street":"3076 Via Alicante UNIT K","state":"CA","city":"La Jolla","zipcode":92037,"lat":32.862854,"lon":-117.23569},{"beds":2,"baths":2.0,"price":6700,"address":"8017 El Paseo Grande, La Jolla, CA 92037","street":"8017 El Paseo Grande","state":"CA","city":"La Jolla","zipcode":92037,"lat":32.85287,"lon":-117.25544},{"beds":4,"baths":3.0,"price":10500,"address":"1540 La Jolla Rancho Rd, La Jolla, CA 92037","street":"1540 La Jolla Rancho Rd","state":"CA","city":"La Jolla","zipcode":92037,"lat":32.825943,"lon":-117.25812},{"beds":3,"baths":0.0,"price":5300,"address":"521 Arenas St, La Jolla, CA","street":"521 Arenas St   Unit B","state":"CA","city":"La Jolla","zipcode":92037,"lat":32.83495,"lon":-117.27707},{"beds":2,"baths":2.0,"price":5900,"address":"1115 Pearl St UNIT 8, La Jolla, CA 92037","street":"1115 Pearl St UNIT 8","state":"CA","city":"La Jolla","zipcode":92037,"lat":32.840622,"lon":-117.27101},{"beds":4,"baths":3.5,"price":10000,"address":"1253 Torrey Pines Rd, La Jolla, CA 92037","street":"1253 Torrey Pines Rd","state":"CA","city":"La Jolla","zipcode":92037,"lat":32.844196,"lon":-117.27009},{"beds":3,"baths":2.0,"price":6450,"address":"5725 Waverly Ave, La Jolla, CA 92037","street":"5725 Waverly Ave","state":"CA","city":"La Jolla","zipcode":92037,"lat":32.816895,"lon":-117.267845},{"beds":3,"baths":2.0,"price":6200,"address":"605 Bonair St, La Jolla, CA 92037","street":"605 Bonair St","state":"CA","city":"La Jolla","zipcode":92037,"lat":32.8306,"lon":-117.27482},{"beds":6,"baths":5.0,"price":16500,"address":"2610 Inyaha Ln, La Jolla, CA 92037","street":"2610 Inyaha Ln","state":"CA","city":"La Jolla","zipcode":92037,"lat":32.8744,"lon":-117.24639},{"beds":3,"baths":3.0,"price":8500,"address":"8025 Paseo Del Ocaso, La Jolla, CA 92037","street":"8025 Paseo Del Ocaso","state":"CA","city":"La Jolla","zipcode":92037,"lat":32.853027,"lon":-117.25447},{"beds":2,"baths":2.0,"price":6950,"address":"6613 Caminito Hermitage, La Jolla, CA 92037","street":"6613 Caminito Hermitage","state":"CA","city":"La Jolla","zipcode":92037,"lat":32.837715,"lon":-117.24168},{"beds":5,"baths":4.0,"price":9000,"address":"5832 Corral Way, La Jolla, CA 92037","street":"5832 Corral Way","state":"CA","city":"La Jolla","zipcode":92037,"lat":32.820774,"lon":-117.26104},{"beds":5,"baths":4.0,"price":17000,"address":"2075 Torrey Pines Rd, La Jolla, CA 92037","street":"2075 Torrey Pines Rd","state":"CA","city":"La Jolla","zipcode":92037,"lat":32.84979,"lon":-117.25575},{"beds":4,"baths":3.5,"price":25995,"address":"5802 Corral Way, La Jolla, CA 92037","street":"5802 Corral Way","state":"CA","city":"La Jolla","zipcode":92037,"lat":32.81987,"lon":-117.260765},{"beds":4,"baths":2.5,"price":5495,"address":"559 Genter St, La Jolla, CA 92037","street":"559 Genter St","state":"CA","city":"La Jolla","zipcode":92037,"lat":32.836033,"lon":-117.277115},{"beds":2,"baths":1.0,"price":2275,"address":"8666 Via Mallorca APT K, La Jolla, CA 92037","street":"8666 Via Mallorca APT K","state":"CA","city":"La Jolla","zipcode":92037,"lat":32.863358,"lon":-117.23383},{"beds":2,"baths":2.0,"price":8000,"address":"333 Coast Blvd, La Jolla, CA 92037","street":"333 Coast Blvd","state":"CA","city":"La Jolla","zipcode":92037,"lat":32.841316,"lon":-117.280685},{"beds":2,"baths":0.0,"price":6500,"address":"1039 Coast Blvd, La Jolla, CA","street":"1039 Coast Blvd Unit F","state":"CA","city":"La Jolla","zipcode":92037,"lat":32.848278,"lon":-117.2747},{"beds":2,"baths":1.0,"price":15000,"address":"5490 La Jolla Blvd, La Jolla, CA 92037","street":"5490 La Jolla Blvd","state":"CA","city":"La Jolla","zipcode":92037,"lat":32.811855,"lon":-117.2683},{"beds":2,"baths":2.0,"price":6900,"address":"909 Coast Blvd UNIT 21, La Jolla, CA 92037","street":"909 Coast Blvd UNIT 21","state":"CA","city":"La Jolla","zipcode":92037,"lat":32.847584,"lon":-117.27665},{"beds":2,"baths":3.0,"price":5600,"address":"Blackhorse, 3120 Almahurst Row, La Jolla, CA 92037","street":"3120 Almahurst Row","state":"CA","city":"La Jolla","zipcode":92037,"lat":32.881313,"lon":-117.24487},{"beds":4,"baths":3.0,"price":9000,"address":"8335 Prestwick Dr, La Jolla, CA 92037","street":"8335 Prestwick Dr","state":"CA","city":"La Jolla","zipcode":92037,"lat":32.85798,"lon":-117.24708},{"beds":1,"baths":1.0,"price":3200,"address":"(undisclosed Address), La Jolla, CA 92037","street":"(undisclosed Address)","state":"CA","city":"La Jolla","zipcode":92037,"lat":null,"lon":null},{"beds":3,"baths":2.5,"price":8000,"address":"460 Gravilla St, La Jolla, CA 92037","street":"460 Gravilla St","state":"CA","city":"La Jolla","zipcode":92037,"lat":32.829384,"lon":-117.27596},{"beds":2,"baths":2.5,"price":7227,"address":"1225 Silverado St, La Jolla, CA 92037","street":"1225 Silverado St","state":"CA","city":"La Jolla","zipcode":92037,"lat":32.846584,"lon":-117.27084},{"beds":3,"baths":3.0,"price":10999,"address":"972 Skylark Dr, La Jolla, CA 92037","street":"972 Skylark Dr","state":"CA","city":"La Jolla","zipcode":92037,"lat":32.81745,"lon":-117.26258},{"beds":3,"baths":3.0,"price":7500,"address":"1040 Genter St UNIT 103, La Jolla, CA 92037","street":"1040 Genter St UNIT 103","state":"CA","city":"La Jolla","zipcode":92037,"lat":32.8376,"lon":-117.2706},{"beds":2,"baths":2.5,"price":3750,"address":"3263 Caminito Eastbluff UNIT 198, La Jolla, CA 92037","street":"3263 Caminito Eastbluff UNIT 198","state":"CA","city":"La Jolla","zipcode":92037,"lat":32.858063,"lon":-117.2323},{"beds":2,"baths":1.5,"price":4100,"address":"8795 Gilman Dr UNIT C, La Jolla, CA 92037","street":"8795 Gilman Dr UNIT C","state":"CA","city":"La Jolla","zipcode":92037,"lat":32.867527,"lon":-117.23662},{"beds":4,"baths":2.5,"price":7450,"address":"6047 Firwood Row, La Jolla, CA 92037","street":"6047 Firwood Row","state":"CA","city":"La Jolla","zipcode":92037,"lat":32.830685,"lon":-117.234634},{"beds":4,"baths":3.0,"price":13500,"address":"318 Colima Ct, La Jolla, CA 92037","street":"318 Colima Ct","state":"CA","city":"La Jolla","zipcode":92037,"lat":32.810963,"lon":-117.26847},{"beds":2,"baths":2.0,"price":4400,"address":"2420 Torrey Pines Rd, La Jolla, CA 92037","street":"2420 Torrey Pines Rd","state":"CA","city":"La Jolla","zipcode":92037,"lat":32.85131,"lon":-117.25007},{"beds":3,"baths":3.0,"price":8500,"address":"5634 Waverly Ave, La Jolla, CA 92037","street":"5634 Waverly Ave","state":"CA","city":"La Jolla","zipcode":92037,"lat":32.815136,"lon":-117.267365},{"beds":2,"baths":2.5,"price":12000,"address":"745 Coast Blvd S UNIT 3B, La Jolla, CA 92037","street":"745 Coast Blvd S UNIT 3B","state":"CA","city":"La Jolla","zipcode":92037,"lat":32.845467,"lon":-117.277725},{"beds":3,"baths":2.0,"price":8250,"address":"5738 La Jolla Hermosa Ave, La Jolla, CA 92037","street":"5738 La Jolla Hermosa Ave","state":"CA","city":"La Jolla","zipcode":92037,"lat":32.816563,"lon":-117.270454},{"beds":2,"baths":2.0,"price":7500,"address":"303 Coast Blvd UNIT 4, La Jolla, CA 92037","street":"303 Coast Blvd UNIT 4","state":"CA","city":"La Jolla","zipcode":92037,"lat":32.84076,"lon":-117.281105},{"beds":2,"baths":2.0,"price":6700,"address":"7451 Girard Ave, La Jolla, CA 92037","street":"7451 Girard Ave","state":"CA","city":"La Jolla","zipcode":92037,"lat":32.84001,"lon":-117.27195},{"beds":3,"baths":3.0,"price":20000,"address":"1056 Pearl St UNIT 2, La Jolla, CA 92037","street":"1056 Pearl St UNIT 2","state":"CA","city":"La Jolla","zipcode":92037,"lat":32.84108,"lon":-117.27178},{"beds":3,"baths":2.0,"price":6995,"address":"655 Wrelton Dr, La Jolla, CA 92037","street":"655 Wrelton Dr","state":"CA","city":"La Jolla","zipcode":92037,"lat":32.806927,"lon":-117.26137},{"beds":2,"baths":1.0,"price":3300,"address":"3262 Via Marin, La Jolla, CA 92037","street":"3262 Via Marin","state":"CA","city":"La Jolla","zipcode":92037,"lat":32.85676,"lon":-117.2331},{"beds":1,"baths":1.0,"price":3500,"address":"7204 Eads Ave, La Jolla, CA 92037","street":"7204 Eads Ave","state":"CA","city":"La Jolla","zipcode":92037,"lat":32.836056,"lon":-117.273834},{"beds":2,"baths":2.0,"price":3295,"address":"8585 Via Mallorca UNIT 22, La Jolla, CA 92037","street":"8585 Via Mallorca UNIT 22","state":"CA","city":"La Jolla","zipcode":92037,"lat":32.862507,"lon":-117.23228},{"beds":6,"baths":5.0,"price":25000,"address":"1402 W Muirlands Dr, La Jolla, CA 92037","street":"1402 W Muirlands Dr","state":"CA","city":"La Jolla","zipcode":92037,"lat":32.833588,"lon":-117.26358},{"beds":2,"baths":2.0,"price":7000,"address":"235 Gravilla St, La Jolla, CA 92037","street":"235 Gravilla St","state":"CA","city":"La Jolla","zipcode":92037,"lat":32.82838,"lon":-117.27922},{"beds":4,"baths":4.5,"price":45000,"address":"1141 Muirlands Vista Way, La Jolla, CA 92037","street":"1141 Muirlands Vista Way","state":"CA","city":"La Jolla","zipcode":92037,"lat":32.828453,"lon":-117.264275},{"beds":4,"baths":3.5,"price":19995,"address":"7274 Via Capri, La Jolla, CA 92037","street":"7274 Via Capri","state":"CA","city":"La Jolla","zipcode":92037,"lat":32.841896,"lon":-117.2525},{"beds":0,"baths":0.0,"price":1750,"address":"1141 Silverado St, La Jolla, CA","street":"1141 Silverado St   # 121","state":"CA","city":"La Jolla","zipcode":92037,"lat":32.84523,"lon":-117.27234},{"beds":4,"baths":3.0,"price":25000,"address":"(undisclosed Address), La Jolla, CA 92037","street":"(undisclosed Address)","state":"CA","city":"La Jolla","zipcode":92037,"lat":null,"lon":null},{"beds":4,"baths":2.0,"price":9995,"address":"5629 Soledad Rd, La Jolla, CA 92037","street":"5629 Soledad Rd","state":"CA","city":"La Jolla","zipcode":92037,"lat":32.821224,"lon":-117.240395},{"beds":3,"baths":2.0,"price":9500,"address":"252 Palomar Ave, La Jolla, CA 92037","street":"252 Palomar Ave","state":"CA","city":"La Jolla","zipcode":92037,"lat":32.826706,"lon":-117.27836},{"beds":2,"baths":2.0,"price":6000,"address":"457 Coast Blvd UNIT 301, La Jolla, CA 92037","street":"457 Coast Blvd UNIT 301","state":"CA","city":"La Jolla","zipcode":92037,"lat":32.8432,"lon":-117.28009}]